     2.11           OBSERVATION DATA    G (GPS)             RINEX VERSION / TYPE
teqc  2013Mar15     gpsops              20150112 00:11:12UTCPGM / RUN BY / DATE
Linux 2.4.21-27.ELsmp|Opteron|gcc -static|Linux x86_64|=+   COMMENT
BIT 2 OF LLI FLAGS DATA COLLECTED UNDER A/S CONDITION       COMMENT
BOGT                                                        MARKER NAME
41901M001                                                   MARKER NUMBER
GGN                 JPL                                     OBSERVER / AGENCY
UC120031609         ASHTECH UZ-12       CQ00                REC # / TYPE / VERS
CR620024311         ASH701945E_M    NONE                    ANT # / TYPE
  1744399.0397 -6116037.5577   512731.7532                  APPROX POSITION XYZ
        0.0610        0.0000        0.0000                  ANTENNA: DELTA H/E/N
     1     1                                                WAVELENGTH FACT L1/2
     7    L1    L2    P1    P2    C1    S1    S2            # / TYPES OF OBSERV
    30.0000                                                 INTERVAL
                                                            COMMENT
This data is provided as a public service by NASA/JPL.      COMMENT
No warranty is expressed or implied regarding suitability   COMMENT
for use.  For further information, contact:                 COMMENT
Dave Stowers, NASA/JPL m/s 238-600                          COMMENT
4800 Oak Grove Drive, Pasadena CA 91109 USA                 COMMENT
                                                            COMMENT
Forced Modulo Decimation to 30 seconds                      COMMENT
 SNR is mapped to RINEX snr flag value [0-9]                COMMENT
  L1 & L2: min(max(int(snr_dBHz/6), 0), 9)                  COMMENT
pseudorange smoothing corrections not applied               COMMENT
  2015     1    11     0     0    0.0000000     GPS         TIME OF FIRST OBS
                                                            END OF HEADER
 15  1 11  0  0  0.0000000  0  7G27G16G14G32G08G22G31
  -3502086.43547  -2712254.22246  22733902.7424   22733916.4464   22733902.376
        46.0004         41.0004
 -18613748.48048 -14489772.07448  20440472.9134   20440477.7774   20440473.042
        52.0004         48.0004
 -15277012.75448 -11901021.93447  21787766.3464   21787772.0384   21787767.102
        48.0004         44.0004
 -14752731.17848 -11476506.27647  21537849.4844   21537855.4804   21537849.591
        51.0004         46.0004
  -9564202.69447  -7439736.52946  23281841.4254   23281847.4244   23281842.107
        44.0004         40.0004
 -30037067.56448 -23397624.92747  22240214.9494   22240224.2834   22240215.336
        48.0004         43.0004
   -559365.79147   -436336.69546  23433967.3044   23433969.7104   23433967.092
        45.0004         40.0004
 15  1 11  0  0 30.0000000  0  7G27G16G14G32G08G22G31
  -3583443.80047  -2775649.37847  22718421.3364   22718434.5144   22718421.353
        46.0004         42.0004
 -18633509.89548 -14505170.52148  20436712.9364   20436717.5764   20436713.170
        52.0004         48.0004
 -15279685.59748 -11903104.70847  21787257.5354   21787263.7784   21787257.833
        48.0004         44.0004
 -14782341.76748 -11499579.45347  21532215.3344   21532220.7964   21532215.381
        51.0004         47.0004
  -9549586.35047  -7428347.10146  23284623.0184   23284628.6424   23284623.260
        44.0004         40.0004
 -29946028.22547 -23326685.60847  22257539.4804   22257548.9144   22257539.919
        47.0004         43.0004
   -529819.82947   -413313.83446  23439589.2344   23439592.5824   23439589.429
        45.0004         40.0004
 15  1 11  0  1  0.0000000  0  7G27G16G14G32G08G22G31
  -3664789.38947  -2839035.38146  22702941.5994   22702955.0184   22702941.481
        46.0004         41.0004
 -18652681.12748 -14520109.07847  20433064.4354   20433069.7514   20433064.795
        52.0004         47.0004
 -15281994.57848 -11904903.93947  21786818.2694   21786825.1914   21786818.535
        48.0004         43.0004
 -14811487.13548 -11522290.11947  21526668.4004   21526674.4124   21526669.433
        51.0004         45.0004
  -9535065.67847  -7417032.21746  23287385.9904   23287390.5434   23287386.920
        45.0004         39.0004
 -29854835.15647 -23255626.48146  22274892.4474   22274901.7644   22274893.013
        47.0004         41.0004
   -500472.62247   -390445.87746  23445174.5204   23445177.2934   23445173.306
        45.0004         40.0004
 15  1 11  0  1 30.0000000  0  7G27G16G14G32G08G22G31
  -3746121.72647  -2902411.03946  22687464.2834   22687477.1964   22687464.338
        46.0004         41.0004
 -18671263.57548 -14534588.84848  20429528.6204   20429533.3034   20429528.871
        52.0004         48.0004
 -15283938.83848 -11906418.98247  21786448.6304   21786454.4864   21786448.396
        48.0004         44.0004
 -14840168.06648 -11544638.88347  21521210.8574   21521216.4134   21521211.180
        51.0004         46.0004
  -9520643.78447  -7405794.34246  23290130.3894   23290135.7334   23290130.820
        44.0004         40.0004
 -29763492.84647 -23184451.07747  22292274.8104   22292285.1774   22292276.090
        47.0004         42.0004
   -471325.80147   -367734.03946  23450720.1164   23450724.0944   23450720.648
        45.0004         40.0004
 15  1 11  0  2  0.0000000  0  7G27G16G14G32G08G22G31
  -3827433.05547  -2965770.31946  22671991.0144   22672004.5104   22671990.672
        46.0004         41.0004
 -18689252.05748 -14548605.78348  20426105.1324   20426109.9904   20426105.140
        52.0004         48.0004
 -15285511.42848 -11907644.41247  21786148.9854   21786155.6884   21786149.518
        48.0004         44.0004
 -14868379.07248 -11566621.47247  21515842.2894   21515848.7364   21515843.392
        51.0004         46.0004
  -9506316.96747  -7394630.52046  23292857.5674   23292862.8244   23292857.415
        44.0004         39.0004
 -29671998.86947 -23113157.47547  22309686.2584   22309695.2514   22309687.004
        47.0004         42.0004
   -442374.20847   -345174.30946  23456229.1714   23456232.1574   23456227.805
        45.0004         40.0004
 15  1 11  0  2 30.0000000  0  7G27G16G14G32G08G22G31
  -3908725.11747  -3029114.60246  22656521.5894   22656534.4784   22656521.644
        46.0004         41.0004
 -18706650.66048 -14562163.07647  20422794.2694   20422799.1764   20422794.587
        53.0004         47.0004
 -15286714.93848 -11908582.25147  21785919.6814   21785926.7414   21785920.296
        49.0004         43.0004
 -14896124.23148 -11588241.05947  21510562.9104   21510568.2124   21510563.143
        51.0004         46.0004
  -9492091.19747  -7383545.44246  23295564.7774   23295568.0564   23295564.889
        44.0004         39.0004
 -29580360.21347 -23041751.15747  22327124.3924   22327134.0514   22327124.573
        47.0004         42.0004
   -413622.69257   -322770.52356  23461700.9535   23461705.4615   23461699.745
        45.0004         40.0004
 15  1 11  0  3  0.0000000  0  7G27G16G14G32G08G22G31
  -3989997.41047  -3092443.47646  22641055.6854   22641069.3334   22641055.284
        46.0004         41.0004
 -18723462.44548 -14575263.10847  20419595.6394   20419600.0144   20419595.702
        52.0004         47.0004
 -15287549.70548 -11909232.75347  21785761.5974   21785768.1714   21785761.931
        48.0004         43.0004
 -14923405.31148 -11609499.01747  21505371.5094   21505377.1814   21505371.724
        51.0004         46.0004
  -9477970.14747  -7372541.96146  23298250.9844   23298256.4464   23298251.042
        43.0004         38.0004
 -29488582.22347 -22970236.28647  22344589.9104   22344599.3104   22344591.212
        46.0004         42.0004
   -385073.78447   -300524.60346  23467133.6614   23467137.3274   23467133.152
        44.0004         39.0004
 15  1 11  0  3 30.0000000  0  7G27G16G14G32G08G22G31
  -4071241.03447  -3155750.01446  22625595.8784   22625608.6804   22625595.036
        46.0004         41.0004
 -18739681.14848 -14587901.00247  20416508.4734   20416513.4184   20416508.795
        52.0004         47.0004
 -15288007.93348 -11909589.85547  21785674.3554   21785679.9824   21785674.383
        48.0004         43.0004
 -14950215.88448 -11630390.35947  21500270.1684   21500275.1354   21500270.257
        51.0004         46.0004
  -9463949.25047  -7361616.54846  23300918.5154   23300923.2274   23300919.545
        43.0004         38.0004
 -29396661.17147 -22898609.92046  22362081.5974   22362092.3984   22362082.289
        46.0004         41.0004
   -356721.35647   -278431.79246  23472529.3664   23472531.5834   23472528.702
        44.0004         39.0004
 15  1 11  0  4  0.0000000  0  7G27G16G14G32G08G22G31
  -4152460.32647  -3219037.58847  22610139.8514   22610152.3944   22610139.994
        47.0004         42.0004
 -18755313.98948 -14600082.37548  20413533.6374   20413538.6574   20413534.048
        53.0004         48.0004
 -15288094.81248 -11909657.58847  21785657.6704   21785663.7474   21785658.077
        49.0004         44.0004
 -14976562.63648 -11650920.27547  21495255.7114   21495261.4964   21495256.307
        51.0004         47.0004
  -9450037.00047  -7350775.78346  23303566.9934   23303571.1934   23303567.179
        44.0004         39.0004
 -29304606.67847 -22826879.60347  22379599.9764   22379609.8954   22379600.409
        47.0004         43.0004
   -328572.26847   -256497.41546  23477885.3374   23477889.0274   23477885.273
        45.0004         40.0004
 15  1 11  0  4 30.0000000  0  7G27G16G14G32G08G22G31
  -4233647.70148  -3282300.29447  22594689.7664   22594703.2924   22594689.454
        48.0004         43.0004
 -18770356.32148 -14611803.60948  20410670.9384   20410676.2404   20410671.395
        53.0004         49.0004
 -15287803.97048 -11909430.99147  21785713.6464   21785719.4474   21785714.055
        49.0004         45.0004
 -15002440.39548 -11671084.75047  21490331.9514   21490336.7004   21490332.156
        52.0004         47.0004
  -9436230.01947  -7340017.01646  23306192.9484   23306199.4314   23306193.426
        44.0004         40.0004
 -29212417.02148 -22755043.94947  22397143.2304   22397153.2064   22397144.081
        48.0004         43.0004
   -300622.19547   -234718.10346  23483203.4014   23483208.1014   23483202.716
        45.0004         41.0004
 15  1 11  0  5  0.0000000  0  7G27G16G14G32G08G22G31
  -4314799.40247  -3345535.20747  22579247.0174   22579260.4684   22579245.784
        47.0004         42.0004
 -18784806.62148 -14623063.51847  20407921.4804   20407926.3444   20407921.295
        53.0004         47.0004
 -15287132.63848 -11908907.91447  21785840.9424   21785847.0654   21785841.503
        49.0004         42.0004
 -15027847.88748 -11690882.78847  21485496.5914   21485502.0494   21485496.894
        52.0004         45.0004
  -9422528.71457  -7329340.59656  23308801.2885   23308807.2485   23308801.471
        44.0004         39.0004
 -29120093.72947 -22683104.17846  22414711.8354   22414722.2204   22414713.118
        47.0004         41.0004
   -272870.09647   -213093.08246  23488484.3394   23488487.9014   23488483.893
        45.0004         39.0004
 15  1 11  0  5 30.0000000  0  7G27G16G14G32G08G22G31
  -4395919.51848  -3408745.48947  22563810.9864   22563824.2934   22563810.494
        48.0004         44.0004
 -18798672.76048 -14633868.24548  20405282.8564   20405287.4734   20405283.558
        53.0004         49.0004
 -15286085.67048 -11908092.14147  21786040.6264   21786046.6294   21786040.261
        49.0004         45.0004
 -15052791.74348 -11710319.54148  21480749.8184   21480755.5734   21480750.297
        52.0004         48.0004
  -9408941.25647  -7318752.92746  23311388.0514   23311392.3074   23311388.037
        45.0004         41.0004
 -29027646.39547 -22611067.75547  22432304.7654   22432315.1294   22432305.567
        47.0004         43.0004
   -245322.75147   -191627.61446  23493727.1724   23493730.8864   23493725.859
        46.0004         41.0004
 15  1 11  0  6  0.0000000  0  7G27G16G14G32G08G22G31
  -4476999.29748  -3471924.36747  22548381.9304   22548395.1084   22548381.659
        48.0004         42.0004
 -18811949.18348 -14644213.45047  20402756.4514   20402760.6024   20402756.517
        53.0004         47.0004
 -15284655.46548 -11906977.73247  21786313.0184   21786318.7434   21786313.189
        49.0004         43.0004
 -15077265.68248 -11729390.12347  21476092.4674   21476097.9824   21476092.896
        51.0004         46.0004
  -9395463.27947  -7308250.55646  23313951.9094   23313956.5984   23313951.619
        45.0004         39.0004
 -28935071.84847 -22538932.21346  22449920.9754   22449931.4444   22449921.351
        47.0004         41.0004
   -217974.44247   -170317.21346  23498930.6544   23498933.9564   23498930.323
        45.0004         40.0004
 15  1 11  0  6 30.0000000  0  7G27G16G14G32G08G22G31
  -4558037.58748  -3535070.92547  22532960.9854   22532974.2294   22532960.334
        48.0004         44.0004
 -18824637.35848 -14654100.28547  20400341.9424   20400346.5494   20400342.141
        53.0004         47.0004
 -15282841.95448 -11905564.63947  21786657.8774   21786663.5124   21786657.626
        49.0004         43.0004
 -15101271.04948 -11748095.59347  21471524.6134   21471530.4994   21471525.120
        52.0004         46.0004
  -9382097.68147  -7297835.73446  23316495.2214   23316499.1984   23316495.513
        45.0004         40.0004
 -28842374.44947 -22466700.92347  22467561.2914   22467572.3074   22467562.228
        47.0004         42.0004
   -190826.98947   -149163.34346  23504097.3274   23504101.1244   23504097.251
        45.0004         41.0004
 15  1 11  0  7  0.0000000  0  7G27G16G14G32G08G22G31
  -4639034.12348  -3598184.94847  22517547.1704   22517560.1184   22517546.665
        48.0004         43.0004
 -18836739.88748 -14663530.77048  20398038.6414   20398042.9664   20398038.785
        53.0004         50.0004
 -15280646.17548 -11903853.68647  21787075.3664   21787081.4834   21787075.765
        49.0004         45.0004
 -15124810.20348 -11766437.77948  21467045.1054   21467051.0854   21467045.645
        52.0004         48.0004
  -9368848.62547  -7287511.74446  23319016.7314   23319020.9624   23319016.706
        45.0004         40.0004
 -28749559.39247 -22394377.97147  22485223.3934   22485235.1434   22485224.258
        47.0004         43.0004
   -163882.60447   -128167.70046  23509225.5494   23509227.3964   23509225.780
        45.0004         41.0004
 15  1 11  0  7 30.0000000  0  7G27G16G14G32G08G22G31
  -4719980.57647  -3661259.95247  22502142.9964   22502155.9604   22502143.266
        47.0004         42.0004
 -18848252.20748 -14672501.35448  20395847.8754   20395852.5684   20395847.963
        52.0004         48.0004
 -15278060.67848 -11901839.04747  21787567.4424   21787574.0524   21787567.129
        48.0004         44.0004
 -15147877.36348 -11784412.17747  21462655.8444   21462661.2704   21462656.420
        51.0004         47.0004
  -9355711.83247  -7277275.23946  23321515.9294   23321520.9474   23321516.573
        44.0004         39.0004
 -28656623.77247 -22321961.06447  22502908.5274   22502919.7034   22502909.578
        46.0004         42.0004
   -137136.54547   -107326.60346  23514312.9334   23514317.5634   23514313.251
        44.0004         39.0004
 15  1 11  0  8  0.0000000  0  7G27G16G14G32G08G22G31
  -4800880.46247  -3724298.66147  22486747.9564   22486762.0304   22486747.890
        47.0004         42.0004
 -18859180.72348 -14681017.03248  20393767.9314   20393773.2114   20393768.339
        52.0004         48.0004
 -15275090.12848 -11899524.37447  21788132.6744   21788138.9694   21788133.370
        48.0004         44.0004
 -15170478.79448 -11802023.67447  21458355.0414   21458360.8064   21458355.378
        51.0004         46.0004
  -9342695.12847  -7267132.29046  23323993.1764   23323998.0124   23323992.544
        44.0004         39.0004
 -28563576.66847 -22249457.29247  22520616.1984   22520627.0094   22520616.386
        46.0004         42.0004
   -110594.61547    -86644.55346  23519364.6464   23519367.6144   23519364.394
        44.0004         39.0004
 15  1 11  0  8 30.0000000  0  7G27G16G14G32G08G22G31
  -4881724.78547  -3787294.06647  22471364.2344   22471377.4444   22471364.015
        47.0004         43.0004
 -18869519.63448 -14689073.27148  20391800.7354   20391805.2854   20391801.259
        52.0004         49.0004
 -15271726.62648 -11896903.50247  21788772.5134   21788779.0364   21788772.640
        48.0004         44.0004
 -15192608.09948 -11819267.27247  21454143.8374   21454149.8254   21454144.053
        51.0004         47.0004
  -9329793.43947  -7257078.97546  23326448.1124   23326453.0104   23326447.824
        44.0004         39.0004
 -28470414.48047 -22176863.84846  22538344.9284   22538355.2714   22538345.416
        46.0004         41.0004
    -84250.50047    -66116.65546  23524377.9394   23524380.5404   23524377.426
        44.0004         40.0004
 15  1 11  0  9  0.0000000  0  7G27G16G14G32G08G22G31
  -4962515.38148  -3850247.62647  22455989.9894   22456003.5664   22455989.877
        48.0004         43.0004
 -18879273.98448 -14696674.00248  20389944.9804   20389949.0344   20389945.098
        53.0004         48.0004
 -15267973.33048 -11893978.89847  21789487.0864   21789493.9974   21789487.305
        49.0004         44.0004
 -15214269.91048 -11836146.59347  21450021.2684   21450027.7674   21450022.220
        52.0004         46.0004
  -9317012.80847  -7247120.00846  23328879.8584   23328884.0264   23328880.022
        45.0004         40.0004
 -28377144.55847 -22104186.44447  22556093.8124   22556104.7244   22556094.526
        47.0004         42.0004
    -58109.03747    -45746.66446  23529353.1284   23529356.8664   23529351.487
        45.0004         41.0004
 15  1 11  0  9 30.0000000  0  7G27G16G14G32G08G22G31
  -5043251.48147  -3913158.71447  22440626.0874   22440639.7444   22440625.820
        47.0004         42.0004
 -18888446.27248 -14703821.18747  20388198.9084   20388204.1124   20388199.156
        52.0004         47.0004
 -15263830.60648 -11890750.85747  21790275.2664   21790282.2364   21790275.777
        48.0004         43.0004
 -15235465.89648 -11852662.93047  21445987.9654   21445993.9334   21445988.256
        50.0004         46.0004
  -9304356.82047  -7237258.15746  23331288.4024   23331293.4444   23331287.852
        44.0004         39.0004
 -28283771.99347 -22031429.06146  22573862.2754   22573873.3894   22573863.016
        46.0004         41.0004
    -32172.07047    -25536.03246  23534288.0754   23534292.2584   23534287.877
        44.0004         39.0004
 15  1 11  0 10  0.0000000  0  7G27G16G14G32G08G22G31
  -5123921.50847  -3976018.30747  22425274.9774   22425288.4944   22425274.706
        47.0004         42.0004
 -18897028.50848 -14710508.59147  20386566.0214   20386570.3364   20386566.354
        52.0004         47.0004
 -15259288.15448 -11887211.32747  21791140.1144   21791146.8414   21791140.288
        48.0004         43.0004
 -15256187.44848 -11868809.58047  21442045.1414   21442051.2544   21442045.235
        50.0004         46.0004
  -9291817.90747  -7227487.53146  23333674.5444   23333679.2254   23333675.879
        44.0004         39.0004
 -28190290.40247 -21958586.70246  22591652.0124   22591662.8584   22591652.603
        46.0004         41.0004
     -6431.34747     -5478.29746  23539186.0924   23539189.4424   23539185.854
        44.0004         39.0004
 15  1 11  0 10 30.0000000  0  7G27G16G14G32G08G22G31
  -5204532.83647  -4038832.18647  22409933.7604   22409947.9174   22409934.068
        47.0004         42.0004
 -18905030.99248 -14716744.23848  20385043.5284   20385047.7554   20385043.743
        52.0004         48.0004
 -15254354.62448 -11883367.06047  21792078.4114   21792085.3064   21792078.286
        48.0004         43.0004
 -15276444.69248 -11884594.42647  21438189.6264   21438195.9424   21438190.733
        51.0004         46.0004
  -9279407.69247  -7217817.20246  23336035.8254   23336039.9904   23336035.715
        44.0004         39.0004
 -28096712.88147 -21885669.60346  22609459.2404   22609470.1494   22609460.497
        46.0004         41.0004
     19103.28647     14418.81846  23544044.4754   23544048.8634   23544044.600
        44.0004         40.0004
 15  1 11  0 11  0.0000000  0  7G27G16G14G32G08G22G31
  -5285064.36247  -4101583.87047  22394610.8024   22394624.0234   22394610.645
        47.0004         43.0004
 -18912436.36548 -14722514.60048  20383633.8034   20383638.2184   20383633.964
        52.0004         48.0004
 -16824430.15048 -13106802.59547  21793095.8814   21793102.5044   21793096.253
        48.0004         43.0004
 -15296219.32448 -11900003.21747  21434426.4964   21434432.5604   21434426.978
        51.0004         46.0004
  -9267109.23847  -7208233.95246  23338376.7024   23338381.5104   23338377.243
        44.0004         39.0004
 -28003023.79047 -21812665.56447  22627287.5224   22627299.5204   22627288.363
        46.0004         42.0004
     44449.93047     34169.45446  23548867.9774   23548871.3404   23548867.275
        44.0004         40.0004
 15  1 11  0 11 30.0000000  0  7G27G16G14G32G08G22G31
  -5365548.36348  -4164298.53247  22379294.9764   22379307.5494   22379294.927
        48.0004         44.0004
 -18919280.23248 -14727847.42948  20382331.6894   20382336.0734   20382331.900
        53.0004         50.0004
 -16818708.54948 -13102344.25347  21794184.8244   21794191.4144   21794184.498
        49.0004         45.0004
 -15315546.45948 -11915063.31348  21430749.1974   21430755.0464   21430749.810
        52.0004         48.0004
  -9254958.95047  -7198766.15146  23340687.9214   23340692.8874   23340687.770
        45.0004         40.0004
 -27909260.98847 -21739604.06247  22645131.4584   22645142.0134   22645131.714
        47.0004         43.0004
     69573.74247     53746.45646  23553648.5514   23553653.3584   23553648.779
        45.0004         41.0004
 15  1 11  0 12  0.0000000  0  7G27G16G14G32G08G22G31
  -5445952.25148  -4226950.76647  22363994.7284   22364007.2724   22363994.489
        48.0004         44.0004
 -18925533.67648 -14732720.18548  20381141.6454   20381145.7334   20381141.841
        53.0004         50.0004
 -16812578.35648 -13097567.54047  21795351.2924   21795358.1594   21795351.546
        49.0004         45.0004
 -15334396.30048 -11929751.49248  21427162.0494   21427167.9734   21427162.718
        51.0004         48.0004
  -9242928.43047  -7189391.69346  23342978.0784   23342982.6104   23342977.579
        45.0004         40.0004
 -27815397.03347 -21666463.75347  22662992.5104   22663004.2784   22662993.645
        46.0004         42.0004
     94504.35247     73172.89846  23558393.7724   23558395.8434   23558393.983
        45.0004         40.0004
 15  1 11  0 12 30.0000000  0  7G27G16G14G32G08G22G31
  -5526281.84348  -4289545.09447  22348708.5244   22348721.0674   22348708.061
        49.0004         44.0004
 -18931205.69448 -14737139.87848  20380062.1384   20380066.4544   20380062.568
        53.0004         48.0004
 -16806046.72548 -13092478.00947  21796594.4094   21796601.2264   21796594.236
        49.0004         44.0004
 -15352777.69948 -11944074.65247  21423664.1794   21423670.0854   21423664.569
        52.0004         47.0004
  -9231027.68047  -7180118.33646  23345241.6114   23345246.3744   23345242.582
        45.0004         40.0004
 -27721443.78947 -21593253.85947  22680871.5984   22680883.3034   22680872.431
        47.0004         42.0004
    119233.15157     92442.11856  23563100.1565   23563102.4645   23563098.427
        45.0004         40.0004
 15  1 11  0 13  0.0000000  0  5G27G16G14G32G08
  -7181936.57448  -5579665.52647  22333440.2114   22333453.0824   22333440.148
        48.0004         42.0004
 -18936279.44148 -14741093.39047  20379096.4274   20379101.0284   20379096.079
        52.0004         46.0004
 -16799094.65348 -13087060.87147  21797917.5184   21797923.8644   21797916.874
        48.0004         42.0004
 -15370672.88548 -11958018.95947  21420259.1034   21420264.6564   21420259.894
        51.0004         45.0004
 -10794660.49357  -8398533.47856  23347486.1435   23347489.9685   23347485.739
        44.0004         38.0004
 15  1 11  0 13 30.0000000  0  7G27G16G14G32G08G22G31
  -7262112.94148  -5642140.46047  22318182.4184   22318195.1134   22318182.497
        48.0004         43.0004
 -18940794.73948 -14744611.74548  20378237.4824   20378241.3364   20378237.786
        52.0004         49.0004
 -18367179.56148 -14308945.26547  21799312.5164   21799319.2034   21799313.040
        48.0004         44.0004
 -15388121.38648 -11971615.18848  21416938.7154   21416944.5414   21416938.939
        51.0004         48.0004
 -10783027.84847  -8389469.03946  23349698.3974   23349703.7724   23349699.255
        44.0004         39.0004
 -29108685.58247 -22674222.32846  22716681.5844   22716694.1464   22716682.101
        46.0004         41.0004
  -1407320.12447  -1097079.87946  23572398.5364   23572401.5494   23572397.105
        44.0004         40.0004
 15  1 11  0 14  0.0000000  0  7G27G16G14G32G08G22G31
  -7342206.21048  -5704550.64547  22302941.9534   22302954.1404   22302942.128
        48.0004         44.0004
 -18944730.64348 -14747678.62947  20377488.1044   20377492.3104   20377488.242
        53.0004         46.0004
 -18359438.58948 -14302913.40547  21800786.4254   21800792.7164   21800786.488
        48.0004         43.0004
 -15405101.34948 -11984846.33547  21413707.3224   21413713.2654   21413707.701
        52.0004         45.0004
 -10771528.54347  -8380508.49146  23351886.8204   23351892.3074   23351887.050
        44.0004         39.0004
 -29014483.56547 -22600818.54747  22734607.5724   22734619.8914   22734608.226
        46.0004         42.0004
  -1383199.52547  -1078284.60246  23576988.5584   23576991.4164   23576988.194
        45.0004         40.0004
 15  1 11  0 14 30.0000000  0  7G27G16G14G32G08G22G31
  -7422211.86848  -5766892.57547  22287716.1934   22287728.8354   22287716.178
        48.0004         44.0004
 -18948086.44748 -14750293.47548  20376849.4984   20376854.2504   20376849.480
        53.0004         49.0004
 -18351288.53148 -14296562.77047  21802336.4834   21802343.8204   21802336.113
        48.0004         44.0004
 -15421611.37048 -11997711.28548  21410565.7644   21410570.7804   21410565.932
        52.0004         48.0004
 -10760162.47147  -8371651.77946  23354049.6794   23354054.1014   23354050.231
        44.0004         40.0004
 -28920200.70547 -22527351.77347  22752549.4044   22752562.6574   22752549.592
        46.0004         42.0004
  -1359278.39047  -1059644.72346  23581540.7364   23581543.8284   23581539.602
        45.0004         41.0004
 15  1 11  0 15  0.0000000  0  7G27G16G14G32G08G22G31
  -7502124.42248  -5829161.93147  22272509.6794   22272522.7844   22272510.094
        49.0004         44.0004
 -18950860.03649 -14752454.65548  20376321.7834   20376326.2754   20376322.169
        54.0004         48.0004
 -18342725.42548 -14289890.29147  21803966.7514   21803973.0734   21803966.751
        49.0004         43.0004
 -15437648.89848 -12010208.06647  21407514.0734   21407520.0464   21407513.836
        52.0004         46.0004
 -10748928.05947  -8362897.66246  23356187.0824   23356192.0894   23356187.501
        45.0004         40.0004
 -28825837.06847 -22453822.03847  22770507.2804   22770519.9694   22770507.691
        47.0004         42.0004
  -1335553.91357  -1041158.11256  23586055.5945   23586058.2085   23586054.817
        46.0004         41.0004
 15  1 11  0 15 30.0000000  0  7G27G16G14G32G08G22G31
  -7581947.69348  -5891361.73147  22257319.8464   22257332.0224   22257320.166
        49.0004         44.0004
 -18953059.23048 -14754168.25648  20375903.7604   20375907.8194   20375903.775
        53.0004         49.0004
 -18333754.51448 -14282900.01947  21805673.5534   21805680.5984   21805674.192
        49.0004         44.0004
 -15453220.85548 -12022342.06047  21404549.9374   21404556.3064   21404551.211
        52.0004         47.0004
 -10737833.31747  -8354252.35846  23358298.7164   23358304.8924   23358298.877
        45.0004         40.0004
 -28731402.12047 -22380236.72847  22788477.6964   22788489.8134   22788477.482
        47.0004         42.0004
  -1312032.78147  -1022829.94846  23590530.1474   23590533.8994   23590530.163
        45.0004         40.0004
 15  1 11  0 16  0.0000000  0  7G27G16G14G32G08G22G31
  -7661673.97048  -5953485.94847  22242148.8404   22242161.0214   22242148.187
        48.0004         44.0004
 -18954679.96048 -14755431.11248  20375595.1444   20375598.9434   20375594.930
        52.0004         48.0004
 -18324369.39748 -14275587.00847  21807459.9624   21807466.7104   21807460.127
        48.0004         43.0004
 -15468322.59748 -12034109.65447  21401676.9944   21401682.5114   21401677.385
        51.0004         47.0004
 -10726874.81447  -8345713.20746  23360384.0464   23360387.1834   23360384.057
        44.0004         39.0004
 -28636893.81347 -22306594.25846  22806461.6804   22806474.8454   22806462.332
        46.0004         41.0004
  -1288710.01047  -1004656.35346  23594969.7824   23594972.0854   23594969.628
        45.0004         40.0004
 15  1 11  0 16 30.0000000  0  7G27G16G14G32G08G22G31
  -7741301.88248  -6015533.50347  22226995.6054   22227007.4874   22226994.976
        48.0004         42.0004
 -18955724.18748 -14756244.73247  20375396.5124   20375400.1794   20375396.340
        52.0004         46.0004
 -18314570.68848 -14267951.70746  21809324.3264   21809331.7134   21809324.041
        48.0004         41.0004
 -15482955.83548 -12045512.18047  21398892.6554   21398897.8464   21398892.695
        51.0004         44.0004
 -10716055.26047  -8337282.33846  23362442.3154   23362447.9504   23362442.779
        44.0004         38.0004
 -28542316.13347 -22232897.70646  22824459.5604   22824471.7794   22824460.274
        45.0004         40.0004
  -1265586.93447   -986638.36046  23599368.9964   23599372.1094   23599369.353
        45.0004         39.0004
 15  1 11  0 17  0.0000000  0  7G27G16G14G32G08G22G31
  -7820831.59747  -6077504.54347  22211861.2584   22211873.7024   22211860.836
        47.0004         42.0004
 -18956196.41048 -14756612.65448  20375306.2764   20375310.4794   20375306.445
        52.0004         48.0004
 -18304359.64347 -14259995.11747  21811267.5724   21811274.1304   21811268.254
        47.0004         42.0004
 -15497123.90248 -12056552.23847  21396195.9784   21396201.1464   21396196.744
        51.0004         46.0004
 -10705378.97647  -8328963.12046  23364474.6094   23364478.5024   23364474.810
        43.0004         38.0004
 -28447674.90047 -22159151.62246  22842469.7404   22842482.9854   22842470.001
        45.0004         40.0004
  -1242666.34347   -968778.16046  23603732.1054   23603734.3324   23603731.470
        44.0004         39.0004
 15  1 11  0 17 30.0000000  0  7G27G16G14G32G08G22G31
  -7900260.23648  -6139396.81747  22196746.7534   22196758.5354   22196746.628
        49.0004         45.0004
 -18956097.78848 -14756535.75148  20375325.0314   20375329.1054   20375324.995
        53.0004         50.0004
 -18293735.44148 -14251716.58247  21813288.9434   21813295.8494   21813289.278
        49.0004         45.0004
 -15510827.05248 -12067230.01448  21393588.1634   21393594.2044   21393588.579
        52.0004         49.0004
 -10694846.98647  -8320756.33846  23366477.8294   23366483.2044   23366478.558
        45.0004         41.0004
 -28352972.56447 -22085357.90247  22860491.3374   22860503.8314   22860492.119
        46.0004         42.0004
  -1219948.28847   -951075.75547  23608054.0454   23608056.8574   23608054.696
        46.0004         42.0004
 15  1 11  0 18  0.0000000  0  7G27G16G14G32G08G22G31
  -7979577.72548  -6201202.48247  22181652.6724   22181664.3284   22181652.955
        49.0004         43.0004
 -18955421.54648 -14756008.75748  20375453.3804   20375457.9214   20375453.634
        53.0004         48.0004
 -18282689.38648 -14243109.33847  21815391.2994   21815397.7694   21815391.932
        48.0004         43.0004
 -15524058.43848 -12077540.18347  21391070.3724   21391076.4974   21391070.699
        52.0004         47.0004
 -10684453.52947  -8312657.47046  23368456.3734   23368460.8794   23368456.621
        44.0004         39.0004
 -28258204.66347 -22011513.07146  22878525.0864   22878537.1044   22878525.711
        46.0004         41.0004
  -1197425.36847   -933525.41846  23612340.2224   23612344.2354   23612339.324
        46.0004         40.0004
 15  1 11  0 18 30.0000000  0  7G27G16G14G32G08G22G31
  -8058789.80548  -6262926.01147  22166578.7724   22166591.2664   22166578.478
        49.0004         45.0004
 -18954177.54348 -14755039.36448  20375689.9574   20375694.7684   20375690.368
        53.0004         50.0004
 -18271229.04448 -14234179.27347  21817572.2034   21817579.0794   21817572.366
        48.0004         45.0004
 -15536827.02248 -12087489.73248  21388640.9974   21388646.3034   21388641.951
        52.0004         48.0004
 -10674208.41147  -8304674.20946  23370405.5694   23370410.3884   23370405.757
        44.0004         40.0004
 -28163382.61247 -21937626.03547  22896569.6564   22896581.5144   22896570.822
        46.0004         42.0004
  -1175105.77247   -916133.49846  23616587.5164   23616590.9914   23616587.142
        45.0004         41.0004
 15  1 11  0 19  0.0000000  0  7G27G16G14G32G08G22G31
  -8137886.87448  -6324559.91647  22151526.7794   22151539.3164   22151526.572
        50.0004         45.0004
 -18952360.41849 -14753623.37448  20376036.2434   20376040.5404   20376036.312
        54.0004         50.0004
 -18259346.25448 -14224920.03547  21819833.3394   21819840.6494   21819833.497
        50.0004         45.0004
 -15549126.43948 -12097073.69648  21386300.5654   21386306.0554   21386300.947
        53.0004         48.0004
 -10664106.12247  -8296802.27146  23372327.7124   23372332.3414   23372328.622
        45.0004         40.0004
 -28068502.29247 -21863693.58647  22914624.4994   22914636.8524   22914625.488
        47.0004         43.0004
  -1152982.77447   -898894.77347  23620797.5064   23620799.8484   23620796.259
        47.0004         42.0004
 15  1 11  0 19 30.0000000  0  7G27G16G14G32G08G22G31
  -8216875.09948  -6386109.00247  22136496.0934   22136507.8084   22136495.845
        50.0004         47.0004
 -18949980.01949 -14751768.47548  20376488.7494   20376493.2224   20376488.909
        55.0004         51.0004
 -18247048.95948 -14215337.80147  21822173.5664   21822180.2174   21822173.735
        50.0004         46.0004
 -15560966.17748 -12106299.47448  21384047.6924   21384053.0134   21384047.695
        53.0004         49.0004
 -10654157.09147  -8289049.72346  23374221.4124   23374226.3134   23374221.887
        46.0004         41.0004
 -27973575.38548 -21789724.81547  22932688.7554   22932701.5234   22932689.190
        48.0004         43.0004
  -1131065.45347   -881816.32047  23624968.2464   23624970.6084   23624968.252
        47.0004         42.0004
 15  1 11  0 20  0.0000000  0  7G27G16G14G32G08G22G31
  -8295739.54848  -6447561.64447  22121488.2004   22121500.7574   22121487.879
        51.0004         47.0004
 -18947025.37949 -14749466.12148  20377050.8344   20377055.3064   20377051.237
        55.0004         51.0004
 -18234323.88448 -14205422.23747  21824595.2724   21824602.3244   21824595.045
        51.0004         46.0004
 -15572334.53049 -12115157.94148  21381884.2804   21381889.6304   21381884.301
        54.0004         49.0004
 -10644350.52147  -8281408.18347  23376088.4134   23376092.6874   23376088.587
        47.0004         42.0004
 -27878592.33248 -21715712.28347  22950763.8164   22950776.9784   22950764.453
        48.0004         44.0004
  -1109341.12047   -864888.24247  23629102.2704   23629103.4474   23629101.830
        47.0004         43.0004
 15  1 11  0 20 30.0000000  0  7G27G16G14G32G08G22G31
  -8374486.30648  -6508922.58547  22106503.3774   22106515.5184   22106503.402
        51.0004         47.0004
 -18943506.74549 -14746724.28748  20377720.5614   20377724.9864   20377720.765
        55.0004         51.0004
 -18221178.63248 -14195179.25947  21827096.9474   21827103.2014   21827097.210
        51.0004         46.0004
 -15583240.86949 -12123656.40848  21379808.6674   21379814.6904   21379809.368
        54.0004         50.0004
 -10634696.23147  -8273885.31747  23377925.0484   23377929.6084   23377924.609
        46.0004         42.0004
 -27783564.82648 -21641665.05947  22968847.3144   22968858.8014   22968846.729
        48.0004         43.0004
  -1087818.60347   -848117.43147  23633196.8224   23633200.7554   23633197.200
        47.0004         43.0004
 15  1 11  0 21  0.0000000  0  7G27G16G14G32G08G22G31
  -8453107.37848  -6570185.58047  22091541.9454   22091554.0134   22091541.377
        51.0004         47.0004
 -18939420.36649 -14743540.05748  20378497.9934   20378502.5624   20378498.743
        55.0004         51.0004
 -18207606.99848 -14184604.03747  21829679.5044   21829686.2554   21829679.498
        51.0004         46.0004
 -15593680.63049 -12131791.29448  21377821.6794   21377827.7104   21377822.662
        54.0004         50.0004
 -10625190.29847  -8266478.05347  23379734.0504   23379737.3014   23379734.073
        46.0004         42.0004
 -27688490.33348 -21567581.21147  22986937.9524   22986952.5134   22986939.544
        48.0004         43.0004
  -1066492.95047   -831500.01147  23637255.2714   23637258.5074   23637254.902
        47.0004         43.0004
 15  1 11  0 21 30.0000000  0  7G27G16G14G32G08G22G31
  -8531604.38548  -6631351.89247  22076604.1284   22076616.7854   22076604.030
        52.0004         47.0004
 -18934771.63249 -14739917.62348  20379382.7644   20379387.2434   20379382.774
        55.0004         51.0004
 -18193612.78148 -14173699.53447  21832341.7484   21832349.0954   21832342.438
        51.0004         46.0004
 -15603658.74149 -12139566.46648  21375923.2324   21375928.9594   21375923.752
        54.0004         50.0004
 -10615838.66847  -8259191.02447  23381513.4624   23381517.4424   23381513.332
        46.0004         42.0004
 -27593375.92848 -21493466.24547  23005039.5374   23005050.8904   23005040.026
        48.0004         43.0004
  -1045368.10647   -815039.09147  23641275.6564   23641279.2094   23641275.285
        47.0004         43.0004
 15  1 11  0 22  0.0000000  0  7G27G16G14G32G08G22G31
  -8609971.54348  -6692417.00247  22061691.5534   22061703.5304   22061691.210
        51.0004         47.0004
 -18929558.63549 -14735855.51448  20380374.6384   20380379.0524   20380375.152
        55.0004         51.0004
 -18179191.71048 -14162462.40747  21835086.6534   21835093.1444   21835087.624
        51.0004         46.0004
 -15613172.96649 -12146980.16848  21374112.6574   21374118.4604   21374113.447
        54.0004         50.0004
 -10606639.52747  -8252022.80547  23383264.4474   23383268.6934   23383264.240
        47.0004         42.0004
 -27498221.57248 -21419320.11047  23023144.7374   23023158.5304   23023145.913
        48.0004         43.0004
  -1024441.00647   -798732.23547  23645258.3724   23645259.5454   23645257.660
        47.0004         42.0004
 15  1 11  0 22 30.0000000  0  7G27G16G14G32G08G22G31
  -8688208.79748  -6753380.92847  22046803.6004   22046815.3124   22046803.604
        52.0004         47.0004
 -18923786.28349 -14731357.53548  20381473.2044   20381477.4064   20381473.226
        55.0004         51.0004
 -18164345.68248 -14150894.15247  21837912.5824   21837918.4624   21837912.187
        50.0004         46.0004
 -15622226.47149 -12154034.87148  21372390.0384   21372395.8664   21372390.236
        54.0004         49.0004
 -10597596.77447  -8244976.47447  23384984.9754   23384989.8274   23384985.180
        47.0004         42.0004
 -27403032.66447 -21345147.01947  23041258.9104   23041272.0554   23041259.831
        47.0004         43.0004
  -1003714.24747   -782581.50347  23649200.2964   23649205.2564   23649199.272
        47.0004         42.0004
 15  1 11  0 23  0.0000000  0  7G27G16G14G32G08G22G31
  -8766306.18048  -6814235.85447  22031942.0194   22031953.2744   22031941.208
        52.0004         47.0004
 -18917448.21149 -14726418.74148  20382678.8884   20382683.4864   20382679.413
        55.0004         51.0004
 -18149066.45948 -14138988.33647  21840819.6404   21840825.9494   21840819.474
        50.0004         46.0004
 -15630812.81449 -12160725.54348  21370755.9824   21370761.6934   21370756.389
        54.0004         50.0004
 -10588704.73547  -8238047.56447  23386676.3224   23386681.1294   23386678.107
        47.0004         42.0004
 -27307804.69847 -21270943.46347  23059381.1524   23059395.3434   23059381.881
        47.0004         43.0004
   -983180.44447   -766581.10947  23653108.9444   23653113.0624   23653108.250
        47.0004         42.0004
 15  1 11  0 23 30.0000000  0  8G27G16G14G19G32G08G22G31
  -8844269.81648  -6874986.56847  22017104.9194   22017117.3734   22017104.796
        52.0004         47.0004
 -18910555.09449 -14721047.44748  20383991.2214   20383995.3074   20383991.186
        55.0004         51.0004
 -18133362.12048 -14126751.26647  21843807.5534   21843814.7484   21843807.956
        50.0004         46.0004
                                                                  24318852.816

 -15638941.60549 -12167059.69348  21369209.1834   21369215.2884   21369209.614
        54.0004         49.0004
 -10579973.41047  -8231243.90147  23388338.2714   23388342.7394   23388338.065
        47.0004         42.0004
 -27212549.44748 -21196718.63747  23077507.7854   23077521.3564   23077509.055
        48.0004         43.0004
   -962848.52347   -750738.04847  23656977.7524   23656982.0784   23656977.932
        47.0004         43.0004
 15  1 11  0 24  0.0000000  0  7G27G16G14G32G08G22G31
  -8922093.02148  -6935627.85447  22002296.2124   22002307.7514   22002295.648
        52.0004         47.0004
 -18903104.08749 -14715241.43348  20385408.6974   20385413.0454   20385408.940
        55.0004         51.0004
 -18117227.94748 -14114179.26947  21846879.0304   21846885.3934   21846878.869
        50.0004         46.0004
 -15646609.62549 -12173034.78248  21367750.2164   21367755.4974   21367750.568
        54.0004         49.0004
 -10571400.36747  -8224563.57747  23389969.3054   23389973.9474   23389969.970
        47.0004         42.0004
 -27117265.38448 -21122471.33047  23095640.2984   23095652.7704   23095640.444
        48.0004         43.0004
   -942714.20947   -735048.96347  23660808.6994   23660812.6664   23660809.597
        47.0004         43.0004
 15  1 11  0 24 30.0000000  0  8G27G16G14G19G32G08G22G31
  -8999776.57848  -6996160.31247  21987513.2354   21987525.1724   21987512.800
        52.0004         47.0004
 -18895100.67749 -14709004.97348  20386931.9034   20386935.9114   20386932.132
        55.0004         51.0004
 -18100666.74748 -14101274.52047  21850029.6564   21850037.1684   21850029.741
        50.0004         45.0004
  -1448244.20248   -874515.20846  24283480.9374   24283495.1834   24283481.949
        50.0004         37.0004
 -15653821.15649 -12178654.17248  21366377.9034   21366383.4284   21366378.358
        54.0004         49.0004
 -10562990.16847  -8218010.13447  23391569.4244   23391574.8424   23391570.897
        47.0004         43.0004
 -27021958.99247 -21048206.59847  23113775.5084   23113787.7144   23113776.755
        47.0004         43.0004
   -922780.82047   -719516.43747  23664603.2394   23664605.1034   23664602.677
        47.0004         43.0004
 15  1 11  0 25  0.0000000  0  8G27G16G14G19G32G08G22G31
  -9077304.03048  -7056571.14647  21972760.4224   21972772.0444   21972760.007
        52.0004         47.0004
 -18886532.61449 -14702328.51748  20388562.3294   20388566.2594   20388562.297
        55.0004         51.0004
 -18083663.51048 -14088025.32747  21853265.2334   21853271.5854   21853265.585
        50.0004         45.0004
  -1541389.00447   -947095.56946  24265755.3224   24265771.1214   24265756.784
        45.0004         37.0004
 -15660563.44149 -12183907.91448  21365094.6874   21365100.0614   21365094.983
        54.0004         49.0004
 -10554730.38447  -8211573.90947  23393141.5534   23393145.2834   23393141.653
        47.0004         42.0004
 -26926619.42748 -20973915.99547  23131919.0594   23131930.3074   23131919.353
        48.0004         43.0004
   -903034.64747   -704129.79747  23668360.1464   23668362.9964   23668360.182
        47.0004         43.0004
 15  1 11  0 25 30.0000000  0  8G27G16G14G19G32G08G22G31
  -9154685.36448  -7116868.12748  21958035.2524   21958046.8224   21958034.855
        52.0004         48.0004
 -18877414.03349 -14695223.09248  20390297.2034   20390301.6814   20390297.235
        55.0004         51.0004
 -18066230.21048 -14074441.03247  21856582.8764   21856589.8564   21856583.765
        50.0004         45.0004
  -1634679.49347  -1019789.40646  24248004.7304   24248018.1154   24248004.150
        43.0004         38.0004
 -15666849.87549 -12188806.45348  21363898.3684   21363904.4844   21363898.752
        54.0004         49.0004
 -10546634.96047  -8205265.73847  23394682.6144   23394685.9504   23394682.554
        47.0004         42.0004
 -26831262.04448 -20899611.47847  23150065.1314   23150077.2574   23150064.557
        48.0004         43.0004
   -883488.24848   -688898.85047  23672080.3964   23672084.1154   23672079.721
        48.0004         43.0004
 15  1 11  0 26  0.0000000  0  8G27G16G14G19G32G08G22G31
  -9231913.68448  -7177045.86847  21943338.5774   21943350.5634   21943338.405
        52.0004         47.0004
 -18867742.52049 -14687686.81948  20392137.4464   20392141.9174   20392137.831
        55.0004         51.0004
 -18048362.26248 -14060518.03547  21859983.5654   21859990.0454   21859984.102
        50.0004         45.0004
  -1728109.26347  -1092591.79146  24230222.9274   24230236.9634   24230223.005
        42.0004         37.0004
 -15672677.26249 -12193347.28748  21362789.5824   21362795.4624   21362789.565
        54.0004         49.0004
 -10538701.03947  -8199083.43247  23396191.0774   23396195.2514   23396193.103
        47.0004         42.0004
 -26735885.35147 -20825291.89947  23168213.4714   23168226.4534   23168213.985
        47.0004         43.0004
   -864137.38948   -673820.24347  23675763.2054   23675765.5384   23675762.393
        48.0004         43.0004
 15  1 11  0 26 30.0000000  0  8G27G16G14G19G32G08G22G31
  -9308984.54948  -7237100.92747  21928672.5024   21928684.3394   21928672.245
        52.0004         47.0004
 -18857518.32649 -14679719.87548  20394083.3544   20394087.5834   20394083.748
        55.0004         51.0004
 -18030057.10348 -14046254.35347  21863467.1094   21863472.7104   21863466.961
        50.0004         45.0004
  -1821674.72046  -1165499.91746  24212416.7064   24212433.0074   24212420.576
        41.0004         36.0004
 -15678044.70349 -12197529.72948  21361768.1844   21361773.6804   21361768.714
        54.0004         49.0004
 -10530928.38947  -8193026.78647  23397671.7384   23397675.2084   23397670.875
        47.0004         42.0004
 -26640490.39147 -20750958.03847  23186367.5934   23186379.9274   23186368.238
        47.0004         43.0004
   -844980.09247   -658892.45847  23679407.3704   23679410.6174   23679407.266
        47.0004         42.0004
 15  1 11  0 27  0.0000000  0  8G27G16G14G19G32G08G22G31
  -9385897.59948  -7297033.01748  21914036.0124   21914048.1634   21914035.593
        52.0004         48.0004
 -18846745.29349 -14671325.27248  20396133.3874   20396137.6524   20396133.637
        55.0004         51.0004
 -18011316.52048 -14031651.39647  21867033.1004   21867040.1054   21867033.425
        50.0004         45.0004
  -1915376.84946  -1238514.53946  24194588.6704   24194600.8764   24194589.813
        41.0004         37.0004
 -15682955.51349 -12201356.35548  21360833.6264   21360839.3554   21360834.032
        54.0004         49.0004
 -10523320.75547  -8187098.73047  23399119.5594   23399122.2014   23399119.443
        47.0004         42.0004
 -26545082.49047 -20676614.09847  23204521.5024   23204536.2034   23204521.979
        47.0004         43.0004
   -826018.66347   -644117.32247  23683016.3924   23683019.2614   23683016.366
        47.0004         43.0004
 15  1 11  0 27 30.0000000  0  8G27G16G14G19G32G08G22G31
  -9462650.37348  -7356840.20748  21899430.4214   21899442.3974   21899430.247
        52.0004         48.0004
 -18835425.43149 -14662504.56248  20398287.3844   20398291.4854   20398287.733
        55.0004         51.0004
 -17992140.09148 -14016708.82047  21870682.2704   21870688.9554   21870682.819
        50.0004         46.0004
  -2009213.32647  -1311633.85446  24176731.8424   24176744.0044   24176733.800
        42.0004         37.0004
 -15687410.94849 -12204828.13748  21359985.6134   21359991.6624   21359986.309
        54.0004         49.0004
 -10515879.45647  -8181300.26347  23400534.7024   23400539.7054   23400533.771
        47.0004         42.0004
 -26449664.76947 -20602262.50347  23222679.7744   23222691.3034   23222681.018
        47.0004         43.0004
   -807253.19647   -629494.87547  23686585.6824   23686589.7314   23686586.117
        47.0004         42.0004
 15  1 11  0 28  0.0000000  0  8G27G16G14G19G32G08G22G31
  -9539236.58948  -7416517.62648  21884856.7144   21884868.2094   21884856.641
        52.0004         48.0004
 -18823556.86849 -14653256.29048  20400545.7894   20400550.1054   20400545.967
        55.0004         51.0004
 -17972523.47648 -14001423.23147  21874415.2134   21874422.4094   21874415.815
        50.0004         46.0004
  -2103178.84147  -1384853.72546  24158849.8994   24158864.6754   24158851.128
        43.0004         38.0004
 -15691408.40049 -12207943.04548  21359225.3074   21359230.9304   21359225.625
        54.0004         49.0004
 -10508602.00047  -8175629.51147  23401919.7414   23401923.7954   23401919.868
        47.0004         42.0004
 -26354235.97747 -20527902.25647  23240839.8774   23240852.2494   23240839.595
        47.0004         43.0004
   -788679.90247   -615022.18547  23690120.6414   23690125.0284   23690120.697
        46.0004         42.0004
 15  1 11  0 28 30.0000000  0  8G27G16G14G19G32G08G22G31
  -9615656.85948  -7476065.72948  21870314.2454   21870325.5584   21870314.210
        53.0004         48.0004
 -18811144.79149 -14643584.50748  20402908.0104   20402911.9274   20402908.118
        55.0004         51.0004
 -17952469.61248 -13985796.93247  21878231.2284   21878238.9504   21878231.806
        50.0004         46.0004
  -2197274.70647  -1458175.19946  24140946.0044   24140959.2814   24140945.807
        44.0004         39.0004
 -15694952.14449 -12210704.42748  21358550.8504   21358556.3684   21358551.358
        54.0004         49.0004
 -10501493.06247  -8170090.04247  23403271.8634   23403276.8704   23403272.584
        47.0004         42.0004
 -26258802.56647 -20453538.38147  23258999.2384   23259012.4754   23258999.942
        47.0004         43.0004
   -770301.88347   -600701.66347  23693619.0174   23693621.2734   23693617.976
        47.0004         42.0004
 15  1 11  0 29  0.0000000  0  8G27G16G14G19G32G08G22G31
  -9691905.37948  -7535480.00648  21855804.0014   21855816.0414   21855803.850
        53.0004         48.0004
 -18798187.66949 -14633488.01248  20405373.5224   20405377.3674   20405373.655
        55.0004         51.0004
 -17931974.55248 -13969826.85147  21882131.1404   21882139.1354   21882132.035
        50.0004         46.0004
  -2291496.06547  -1531594.43846  24123015.2524   24123029.7074   24123015.843
        44.0004         40.0004
 -15698040.19149 -12213110.71948  21357963.1064   21357968.9554   21357963.464
        54.0004         49.0004
 -10494550.90147  -8164680.52947  23404593.1664   23404597.0704   23404592.563
        46.0004         42.0004
 -26163364.01747 -20379170.50847  23277160.0464   23277173.9524   23277162.043
        47.0004         43.0004
   -752115.91947   -586530.77847  23697079.3734   23697082.9084   23697078.515
        47.0004         42.0004
 15  1 11  0 29 30.0000000  0  8G27G16G14G19G32G08G22G31
  -9767979.18548  -7594758.14448  21841328.5124   21841339.3924   21841328.110
        53.0004         48.0004
 -18784687.65349 -14622968.47948  20407941.9194   20407946.5144   20407942.435
        55.0004         51.0004
 -17911037.57948 -13953512.42447  21886116.3484   21886122.9404   21886115.673
        50.0004         46.0004
  -2385840.60547  -1605109.67146  24105062.4574   24105076.7684   24105062.639
        45.0004         40.0004
 -15700673.23749 -12215162.46048  21357462.2744   21357467.5904   21357463.190
        54.0004         49.0004
 -10487776.50147  -8159401.72347  23405881.9814   23405886.8244   23405883.330
        46.0004         42.0004
 -26067922.75847 -20304800.48947  23295321.4954   23295336.0334   23295322.154
        47.0004         42.0004
   -734121.48347   -572509.17247  23700503.8384   23700507.1754   23700504.108
        47.0004         42.0004
 15  1 11  0 30  0.0000000  0  8G27G16G14G19G32G08G22G31
  -9843879.05148  -7653900.73548  21826884.7564   21826896.4504   21826884.396
        53.0004         48.0004
 -18770649.82549 -14612029.86948  20410613.7594   20410617.4354   20410614.069
        55.0004         51.0004
 -17889661.85248 -13936856.10347  21890183.2584   21890190.5124   21890183.462
        50.0004         45.0004
  -2480309.89447  -1678722.09546  24087084.8694   24087099.3934   24087084.922
        45.0004         40.0004
 -15702855.89149 -12216863.25348  21357046.7864   21357052.4504   21357047.151
        54.0004         49.0004
 -10481174.61547  -8154257.38047  23407138.4774   23407144.7124   23407138.836
        46.0004         42.0004
 -25972485.22547 -20230433.36347  23313482.8284   23313495.2984   23313483.423
        47.0004         42.0004
   -716321.94447   -558639.41047  23703890.9384   23703893.7384   23703890.451
        47.0004         43.0004
 15  1 11  0 30 30.0000000  0  8G27G16G14G19G32G08G22G31
  -9919597.24548  -7712901.77348  21812476.4444   21812487.2174   21812476.074
        53.0004         48.0004
 -18756070.98749 -14600669.69948  20413388.0544   20413392.1694   20413388.401
        55.0004         51.0004
 -17867841.47348 -13919853.30347  21894336.5994   21894342.7444   21894336.572
        50.0004         46.0004
  -2574896.90947  -1752426.26846  24069085.7034   24069099.5384   24069085.948
        45.0004         40.0004
 -15704584.30749 -12218210.08848  21356717.9174   21356723.6214   21356718.111
        54.0004         49.0004
 -10474741.34147  -8149244.41746  23408362.8344   23408367.0134   23408362.268
        46.0004         41.0004
 -25877048.95547 -20156067.19347  23331643.3804   23331657.3894   23331644.874
        47.0004         42.0004
   -698711.89347   -544917.30947  23707241.6854   23707244.4764   23707241.642
        47.0004         42.0004
 15  1 11  0 31  0.0000000  0  8G27G16G14G19G32G08G22G31
  -9995135.96548  -7771762.95148  21798101.3704   21798112.0924   21798101.306
        53.0004         48.0004
 -18740957.84849 -14588893.19248  20416263.9844   20416267.6364   20416264.118
        55.0004         51.0004
 -17845581.26248 -13902507.78047  21898572.1654   21898578.6224   21898572.619
        50.0004         46.0004
  -2669604.48647  -1826224.37446  24051063.0224   24051077.4974   24051064.577
        45.0004         40.0004
 -15705864.45449 -12219207.63348  21356474.5524   21356479.8154   21356474.509
        54.0004         49.0004
 -10468482.68447  -8144367.49046  23409551.9864   23409557.7384   23409552.587
        46.0004         41.0004
 -25781621.84047 -20081708.17447  23349802.6634   23349816.2274   23349803.918
        47.0004         42.0004
   -681296.38247   -531346.78147  23710556.5534   23710558.6804   23710556.500
        47.0004         43.0004
 15  1 11  0 31 30.0000000  0  8G27G16G14G19G32G08G22G31
 -10070485.01848  -7830476.34948  21783762.6434   21783773.8124   21783762.381
        53.0004         48.0004
 -18725305.53749 -14576696.55548  20419242.3164   20419246.3874   20419242.849
        55.0004         51.0004
 -17822873.05848 -13884813.17147  21902893.1224   21902900.8354   21902893.357
        50.0004         45.0004
  -2764423.37447  -1900109.16846  24033020.1974   24033034.9294   24033021.731
        45.0004         41.0004
 -15706689.98349 -12219850.92948  21356317.2044   21356323.0464   21356317.574
        54.0004         49.0004
 -10462392.21047  -8139621.63047  23410712.8094   23410717.1784   23410713.529
        46.0004         42.0004
 -25686198.88047 -20007352.36447  23367961.5534   23367975.0364   23367963.180
        47.0004         42.0004
   -664067.50048   -517921.70047  23713835.0554   23713836.4054   23713834.206
        48.0004         43.0004
 15  1 11  0 32  0.0000000  0  8G27G16G14G19G32G08G22G31
 -10145648.65548  -7889045.24648  21769459.4394   21769470.6964   21769459.251
        53.0004         48.0004
 -18709122.55149 -14564086.40648  20422322.0274   20422325.7554   20422322.020
        55.0004         51.0004
 -17799723.20648 -13866774.42847  21907298.2174   21907305.5944   21907299.255
        50.0004         45.0004
  -2859358.32847  -1974084.42046  24014955.4584   24014968.9944   24014956.481
        46.0004         41.0004
 -15707069.02949 -12220146.31048  21356244.9604   21356251.0204   21356245.356
        54.0004         49.0004
 -10456478.29447  -8135013.34346  23411838.3684   23411842.4794   23411838.662
        46.0004         41.0004
 -25590789.77447 -19933007.35247  23386116.6424   23386129.2664   23386118.684
        47.0004         43.0004
   -647031.83748   -504647.17347  23717076.3134   23717078.9274   23717075.430
        48.0004         43.0004
 15  1 11  0 32 30.0000000  0  8G27G16G14G19G32G08G22G31
 -10220619.84948  -7947464.20148  21755192.4404   21755203.8834   21755192.719
        53.0004         48.0004
 -18692406.36149 -14551060.77048  20425503.0724   20425506.8204   20425503.445
        55.0004         51.0004
 -17776127.09348 -13848387.94647  21911789.7434   21911796.1984   21911789.904
        50.0004         45.0004
  -2954403.01847  -2048145.20647  23996867.9194   23996882.8424   23996867.827
        47.0004         42.0004
 -15706998.36649 -12220091.26448  21356258.5714   21356264.2024   21356259.034
        54.0004         49.0004
 -10450737.98947  -8130540.35946  23412929.8334   23412935.0114   23412930.825
        46.0004         41.0004
 -25495392.94847 -19858671.87847  23404270.0294   23404282.5984   23404270.598
        47.0004         42.0004
   -630185.01548   -491519.79647  23720282.7814   23720286.2514   23720282.399
        48.0004         43.0004
 15  1 11  0 33  0.0000000  0  8G27G16G14G19G32G08G22G31
 -10295396.41148  -8005731.48948  21740963.3994   21740973.8424   21740963.043
        53.0004         48.0004
 -18675160.10449 -14537622.09648  20428784.8854   20428788.7744   20428784.505
        55.0004         51.0004
 -17752084.87948 -13829653.86647  21916363.5614   21916370.1834   21916363.620
        50.0004         45.0004
  -3049555.95247  -2122290.28546  23978761.5214   23978776.1664   23978761.753
        46.0004         41.0004
 -15706479.82749 -12219687.22948  21356357.4074   21356363.2934   21356358.187
        54.0004         50.0004
 -10445173.04247  -8126203.99946  23413987.2774   23413993.3384   23413988.772
        46.0004         41.0004
 -25400011.72447 -19784348.58047  23422419.3664   23422432.9304   23422419.463
        47.0004         42.0004
   -613526.98748   -478539.52047  23723452.5004   23723456.3954   23723452.894
        48.0004         43.0004
 15  1 11  0 33 30.0000000  0  8G27G16G14G19G32G08G22G31
 -10369975.75448  -8063845.10548  21726770.8594   21726781.8754   21726770.636
        53.0004         48.0004
 -18657385.41749 -14523771.66048  20432167.0854   20432170.9174   20432166.934
        55.0004         51.0004
 -17727596.19148 -13810571.87647  21921024.0234   21921031.0554   21921023.683
        50.0004         45.0004
